header:
  stamp:
    sec: 1775648184
    nanosec: 373824348
  frame_id: zed_imu_link
orientation:
  x: 0.0
  y: 0.0
  z: 0.0
  w: 1.0
orientation_covariance:
- 0.0
- 0.0
- 0.0
- 0.0
- 0.0
- 0.0
- 0.0
- 0.0
- 0.0
angular_velocity:
  x: -0.018109495910644532
  y: -0.04048004968261719
  z: 0.04048004968261719
angular_velocity_covariance:
- 0.0002813106443876402
- 0.0
- 0.0
- 0.0
- 0.00025887979992195533
- 0.0
- 0.0
- 0.0
- 0.00012124758121030447
linear_acceleration:
  x: -0.8523358106613159
  y: -0.06703764945268631
  z: 9.727641105651855
linear_acceleration_covariance:
- 0.013013492338359356
- 0.0
- 0.0
- 0.0
- 0.01717272400856018
- 0.0
- 0.0
- 0.0
- 0.014863232150673866
---
header:
  stamp:
    sec: 1775648184
    nanosec: 375061848
  frame_id: zed_imu_link
orientation:
  x: 0.0
  y: 0.0
  z: 0.0
  w: 1.0
orientation_covariance:
- 0.0
- 0.0
- 0.0
- 0.0
- 0.0
- 0.0
- 0.0
- 0.0
- 0.0
angular_velocity:
  x: -0.02077265707397461
  y: -0.04048004968261719
  z: 0.03675162405395508
angular_velocity_covariance:
- 0.0002806306791896856
- 0.0
- 0.0
- 0.0
- 0.000249459858022302
- 0.0
- 0.0
- 0.0
- 0.00011890463357053784
linear_acceleration:
  x: -0.9026140570640564
  y: -0.10534487664699554
  z: 9.674968719482422
linear_acceleration_covariance:
- 0.013020041398704052
- 0.0
- 0.0
- 0.0
- 0.016990937292575836
- 0.0
- 0.0
- 0.0
- 0.014992844313383102
---
header:
  stamp:
    sec: 1775648184
    nanosec: 387434868
  frame_id: zed_imu_link
orientation:
  x: 0.0
  y: 0.0
  z: 0.0
  w: 1.0
orientation_covariance:
- 0.0
- 0.0
- 0.0
- 0.0
- 0.0
- 0.0
- 0.0
- 0.0
- 0.0
angular_velocity:
  x: -0.018109495910644532
  y: -0.04154531414794922
  z: 0.04580637200927735
angular_velocity_covariance:
- 0.0003017136129379939
- 0.0
- 0.0
- 0.0
- 0.0002151361589734867
- 0.0
- 0.0
- 0.0
- 0.00012047458152171384
linear_acceleration:
  x: -0.6416460275650024
  y: -0.22026655077934265
  z: 9.823410034179688
linear_acceleration_covariance:
- 0.013264684937894344
- 0.0
- 0.0
- 0.0
- 0.01679586060345173
- 0.0
- 0.0
- 0.0
- 0.015472054481506348
---
header:
  stamp:
    sec: 1775648184
    nanosec: 401083008
  frame_id: zed_imu_link
orientation:
  x: 0.0
  y: 0.0
  z: 0.0
  w: 1.0
orientation_covariance:
- 0.0
- 0.0
- 0.0
- 0.0
- 0.0
- 0.0
- 0.0
- 0.0
- 0.0
angular_velocity:
  x: 0.004793690093994141
  y: -0.033555828577364326
  z: 0.06498113654644323
angular_velocity_covariance:
- 0.000343908240511341
- 0.0
- 0.0
- 0.0
- 0.00025717280584757076
- 0.0
- 0.0
- 0.0
- 0.00014422271557509975
linear_acceleration:
  x: -0.7733271718025208
  y: -0.0071826050989329815
  z: 10.02452278137207
linear_acceleration_covariance:
- 0.012180928140878677
- 0.0
- 0.0
- 0.0
- 0.01621473953127861
- 0.0
- 0.0
- 0.0
- 0.01643965020775795
---
header:
  stamp:
    sec: 1775648184
    nanosec: 414654918
  frame_id: zed_imu_link
orientation:
  x: 0.0
  y: 0.0
  z: 0.0
  w: 1.0
orientation_covariance:
- 0.0
- 0.0
- 0.0
- 0.0
- 0.0
- 0.0
- 0.0
- 0.0
- 0.0
angular_velocity:
  x: -0.003195793395996094
  y: 0.00745685125732422
  z: 0.06604639685058594
angular_velocity_covariance:
- 0.0003464107666324113
- 0.0
- 0.0
- 0.0
- 0.00024105414458613992
- 0.0
- 0.0
- 0.0
- 0.00013416705614604767
linear_acceleration:
  x: -0.8427590131759644
  y: -0.07182604819536209
  z: 9.919178009033203
linear_acceleration_covariance:
- 0.012656855396926403
- 0.0
- 0.0
- 0.0
- 0.015914080664515495
- 0.0
- 0.0
- 0.0
- 0.013501987792551517
---
header:
  stamp:
    sec: 1775648184
    nanosec: 427029918
  frame_id: zed_imu_link
orientation:
  x: 0.0
  y: 0.0
  z: 0.0
  w: 1.0
orientation_covariance:
- 0.0
- 0.0
- 0.0
- 0.0
- 0.0
- 0.0
- 0.0
- 0.0
- 0.0
angular_velocity:
  x: -0.01491370251464844
  y: 0.04527373977661133
  z: 0.07084008694458009
angular_velocity_covariance:
- 0.00033840736745142355
- 0.0
- 0.0
- 0.0
- 0.00021277214966136687
- 0.0
- 0.0
- 0.0
- 0.00013073200632492533
linear_acceleration:
  x: -0.849941611289978
  y: -0.016759412363171577
  z: 9.971850395202637
linear_acceleration_covariance:
- 0.010914940387010574
- 0.0
- 0.0
- 0.0
- 0.014715904369950294
- 0.0
- 0.0
- 0.0
- 0.011591569520533085
---
header:
  stamp:
    sec: 1775648184
    nanosec: 428306028
  frame_id: zed_imu_link
orientation:
  x: 0.0
  y: 0.0
  z: 0.0
  w: 1.0
orientation_covariance:
- 0.0
- 0.0
- 0.0
- 0.0
- 0.0
- 0.0
- 0.0
- 0.0
- 0.0
angular_velocity:
  x: -0.01864212814331055
  y: 0.04154531414794922
  z: 0.06604639685058594
angular_velocity_covariance:
- 0.00033380749820948466
- 0.0
- 0.0
- 0.0
- 0.0002084107675455998
- 0.0
- 0.0
- 0.0
- 0.00013029011972932533
linear_acceleration:
  x: -0.8571242094039917
  y: 0.002394201699644327
  z: 9.967061996459961
linear_acceleration_covariance:
- 0.01089122612029314
- 0.0
- 0.0
- 0.0
- 0.014666663482785225
- 0.0
- 0.0
- 0.0
- 0.010725585743784904
---
header:
  stamp:
    sec: 1775648184
    nanosec: 441875958
  frame_id: zed_imu_link
orientation:
  x: 0.0
  y: 0.0
  z: 0.0
  w: 1.0
orientation_covariance:
- 0.0
- 0.0
- 0.0
- 0.0
- 0.0
- 0.0
- 0.0
- 0.0
- 0.0
angular_velocity:
  x: -0.027696876098632816
  y: 0.06444850015258789
  z: 0.04154531414794922
angular_velocity_covariance:
- 0.0003302795591506391
- 0.0
- 0.0
- 0.0
- 0.00021650705596431086
- 0.0
- 0.0
- 0.0
- 0.00011466990291640847
linear_acceleration:
  x: -0.9409212470054626
  y: -0.13168109953403473
  z: 10.36449909210205
linear_acceleration_covariance:
- 0.009825943037867546
- 0.0
- 0.0
- 0.0
- 0.01292025949805975
- 0.0
- 0.0
- 0.0
- 0.007155096158385277
---
header:
  stamp:
    sec: 1775648184
    nanosec: 443152068
  frame_id: zed_imu_link
orientation:
  x: 0.0
  y: 0.0
  z: 0.0
  w: 1.0
orientation_covariance:
- 0.0
- 0.0
- 0.0
- 0.0
- 0.0
- 0.0
- 0.0
- 0.0
- 0.0
angular_velocity:
  x: -0.027696876098632816
  y: 0.07616640927124024
  z: 0.03941478521728516
angular_velocity_covariance:
- 0.00033029659005466257
- 0.0
- 0.0
- 0.0
- 0.00021650551265211258
- 0.0
- 0.0
- 0.0
- 0.0001148716501339538
linear_acceleration:
  x: -0.9648633003234863
  y: -0.15562310814857483
  z: 10.35252857208252
linear_acceleration_covariance:
- 0.00982553232461214
- 0.0
- 0.0
- 0.0
- 0.012849575839936733
- 0.0
- 0.0
- 0.0
- 0.007215696386992931
---
header:
  stamp:
    sec: 1775648184
    nanosec: 455486478
  frame_id: zed_imu_link
orientation:
  x: 0.0
  y: 0.0
  z: 0.0
  w: 1.0
orientation_covariance:
- 0.0
- 0.0
- 0.0
- 0.0
- 0.0
- 0.0
- 0.0
- 0.0
- 0.0
angular_velocity:
  x: -0.019174760375976565
  y: 0.01491370251464844
  z: 0.03781688851928711
angular_velocity_covariance:
- 0.00032750726205730684
- 0.0
- 0.0
- 0.0
- 0.00021983038813889073
- 0.0
- 0.0
- 0.0
- 0.00011591543756519585
linear_acceleration:
  x: -1.3311761617660522
  y: -0.10534487664699554
  z: 10.42195987701416
linear_acceleration_covariance:
- 0.00976215023547411
- 0.0
- 0.0
- 0.0
- 0.012723960913717747
- 0.0
- 0.0
- 0.0
- 0.007192711345851421
---
header:
  stamp:
    sec: 1775648184
    nanosec: 456723978
  frame_id: zed_imu_link
orientation:
  x: 0.0
  y: 0.0
  z: 0.0
  w: 1.0
orientation_covariance:
- 0.0
- 0.0
- 0.0
- 0.0
- 0.0
- 0.0
- 0.0
- 0.0
- 0.0
angular_velocity:
  x: -0.019174760375976565
  y: 0.010652644653320314
  z: 0.0372842562866211
angular_velocity_covariance:
- 0.00032673259196021917
- 0.0
- 0.0
- 0.0
- 0.0002239271557607996
- 0.0
- 0.0
- 0.0
- 0.00011636289824132379
linear_acceleration:
  x: -1.2306196689605713
  y: -0.043095629662275314
  z: 10.414777755737305
linear_acceleration_covariance:
- 0.009899594821035862
- 0.0
- 0.0
- 0.0
- 0.012785172089934349
- 0.0
- 0.0
- 0.0
- 0.007199733518064022
---
header:
  stamp:
    sec: 1775648184
    nanosec: 470373108
  frame_id: zed_imu_link
orientation:
  x: 0.0
  y: 0.0
  z: 0.0
  w: 1.0
orientation_covariance:
- 0.0
- 0.0
- 0.0
- 0.0
- 0.0
- 0.0
- 0.0
- 0.0
- 0.0
angular_velocity:
  x: -0.022903186004638674
  y: -0.02343581823730469
  z: 0.033555828577364326
angular_velocity_covariance:
- 0.00030899474201017974
- 0.0
- 0.0
- 0.0
- 0.00022633396021234746
- 0.0
- 0.0
- 0.0
- 0.00011923076267295869
linear_acceleration:
  x: -1.113303780555725
  y: 0.019153613597154617
  z: 10.225635528564453
linear_acceleration_covariance:
- 0.011208835057914257
- 0.0
- 0.0
- 0.0
- 0.011383520439267159
- 0.0
- 0.0
- 0.0
- 0.008521748706698418
---
header:
  stamp:
    sec: 1775648184
    nanosec: 483945018
  frame_id: zed_imu_link
orientation:
  x: 0.0
  y: 0.0
  z: 0.0
  w: 1.0
orientation_covariance:
- 0.0
- 0.0
- 0.0
- 0.0
- 0.0
- 0.0
- 0.0
- 0.0
- 0.0
angular_velocity:
  x: -0.03781688851928711
  y: -0.08735168615722658
  z: 0.02609897940063477
angular_velocity_covariance:
- 0.0003073702334336405
- 0.0
- 0.0
- 0.0
- 0.00024401539756238572
- 0.0
- 0.0
- 0.0
- 0.00011771937888055447
linear_acceleration:
  x: -0.9193734526634216
  y: -0.07900865375995636
  z: 10.077195167541504
linear_acceleration_covariance:
- 0.011190575547516346
- 0.0
- 0.0
- 0.0
- 0.00887816958129406
- 0.0
- 0.0
- 0.0
- 0.008910251781344414
---
header:
  stamp:
    sec: 1775648184
    nanosec: 485182518
  frame_id: zed_imu_link
orientation:
  x: 0.0
  y: 0.0
  z: 0.0
  w: 1.0
orientation_covariance:
- 0.0
- 0.0
- 0.0
- 0.0
- 0.0
- 0.0
- 0.0
- 0.0
- 0.0
angular_velocity:
  x: -0.038882152984619146
  y: -0.09321064071655275
  z: 0.02609897940063477
angular_velocity_covariance:
- 0.0003062636967440772
- 0.0
- 0.0
- 0.0
- 0.0002502190768407926
- 0.0
- 0.0
- 0.0
- 0.00011747678835959662
linear_acceleration:
  x: -0.8403648138046265
  y: -0.05985504388809204
  z: 9.981427192687988
linear_acceleration_covariance:
- 0.011181761510670185
- 0.0
- 0.0
- 0.0
- 0.008812740445137024
- 0.0
- 0.0
- 0.0
- 0.008896047249436378
---
header:
  stamp:
    sec: 1775648184
    nanosec: 500032518
  frame_id: zed_imu_link
orientation:
  x: 0.0
  y: 0.0
  z: 0.0
  w: 1.0
orientation_covariance:
- 0.0
- 0.0
- 0.0
- 0.0
- 0.0
- 0.0
- 0.0
- 0.0
- 0.0
angular_velocity:
  x: -0.042610578613281255
  y: -0.15233281854248049
  z: 0.005858954559326173
angular_velocity_covariance:
- 0.00026713189024623777
- 0.0
- 0.0
- 0.0
- 0.00029001875623159765
- 0.0
- 0.0
- 0.0
- 0.00011708741069196683
linear_acceleration:
  x: -0.689530074596405
  y: -0.20111294090747833
  z: 10.108319282531738
linear_acceleration_covariance:
- 0.011828098446130753
- 0.0
- 0.0
- 0.0
- 0.008841176517307758
- 0.0
- 0.0
- 0.0
- 0.010679691098630428
---
header:
  stamp:
    sec: 1775648184
    nanosec: 514881528
  frame_id: zed_imu_link
orientation:
  x: 0.0
  y: 0.0
  z: 0.0
  w: 1.0
orientation_covariance:
- 0.0
- 0.0
- 0.0
- 0.0
- 0.0
- 0.0
- 0.0
- 0.0
- 0.0
angular_velocity:
  x: -0.033555828577364326
  y: -0.10972223992919923
  z: -0.020240024841308595
angular_velocity_covariance:
- 0.00026795503850296596
- 0.0
- 0.0
- 0.0
- 0.0003831152335481586
- 0.0
- 0.0
- 0.0
- 0.00011864616509055165
linear_acceleration:
  x: -0.706289529800415
  y: -0.35913026332855225
  z: 10.038887977600098
linear_acceleration_covariance:
- 0.012449140660464764
- 0.0
- 0.0
- 0.0
- 0.006949617061764002
- 0.0
- 0.0
- 0.0
- 0.011442426592111588
---
header:
  stamp:
    sec: 1775648184
    nanosec: 528532638
  frame_id: zed_imu_link
orientation:
  x: 0.0
  y: 0.0
  z: 0.0
  w: 1.0
orientation_covariance:
- 0.0
- 0.0
- 0.0
- 0.0
- 0.0
- 0.0
- 0.0
- 0.0
- 0.0
angular_velocity:
  x: -0.02609897940063477
  y: -0.06551376045673062
  z: -0.047936900939941414
angular_velocity_covariance:
- 0.00026657190395424
- 0.0
- 0.0
- 0.0
- 0.0004042212080397567
- 0.0
- 0.0
- 0.0
- 0.00012050080875077779
linear_acceleration:
  x: -0.7757213711738586
  y: -0.40940847992897034
  z: 9.928754806518555
linear_acceleration_covariance:
- 0.01238987222313881
- 0.0
- 0.0
- 0.0
- 0.006050801370292902
- 0.0
- 0.0
- 0.0
- 0.012186996638774872
---
header:
  stamp:
    sec: 1775648184
    nanosec: 529730538
  frame_id: zed_imu_link
orientation:
  x: 0.0
  y: 0.0
  z: 0.0
  w: 1.0
orientation_covariance:
- 0.0
- 0.0
- 0.0
- 0.0
- 0.0
- 0.0
- 0.0
- 0.0
- 0.0
angular_velocity:
  x: -0.023968450469970707
  y: -0.06444850015258789
  z: -0.051132694335937506
angular_velocity_covariance:
- 0.00026635284440515265
- 0.0
- 0.0
- 0.0
- 0.00041725624074592403
- 0.0
- 0.0
- 0.0
- 0.00012078525934553764
linear_acceleration:
  x: -0.8068459630012512
  y: -0.33997663855552673
  z: 9.950302124023438
linear_acceleration_covariance:
- 0.012378967367112637
- 0.0
- 0.0
- 0.0
- 0.00611606752499938
- 0.0
- 0.0
- 0.0
- 0.01223599910736084
---
header:
  stamp:
    sec: 1775648184
    nanosec: 543343038
  frame_id: zed_imu_link
orientation:
  x: 0.0
  y: 0.0
  z: 0.0
  w: 1.0
orientation_covariance:
- 0.0
- 0.0
- 0.0
- 0.0
- 0.0
- 0.0
- 0.0
- 0.0
- 0.0
angular_velocity:
  x: -0.005326322326660157
  y: -0.006391586791992188
  z: -0.06764429354858399
angular_velocity_covariance:
- 0.0002563127996642245
- 0.0
- 0.0
- 0.0
- 0.00048599779904426473
- 0.0
- 0.0
- 0.0
- 0.00012232488575117064
linear_acceleration:
  x: -0.7445967197418213
  y: -0.31364041566848755
  z: 9.859322547912598
linear_acceleration_covariance:
- 0.011942095123231411
- 0.0
- 0.0
- 0.0
- 0.005588940344750881
- 0.0
- 0.0
- 0.0
- 0.012803488411009312
---
header:
  stamp:
    sec: 1775648184
    nanosec: 544580538
  frame_id: zed_imu_link
orientation:
  x: 0.0
  y: 0.0
  z: 0.0
  w: 1.0
orientation_covariance:
- 0.0
- 0.0
- 0.0
- 0.0
- 0.0
- 0.0
- 0.0
- 0.0
- 0.0
angular_velocity:
  x: -0.0005326322326660157
  y: -0.010120012420654297
  z: -0.06391586791992188
angular_velocity_covariance:
- 0.0002558458297062487
- 0.0
- 0.0
- 0.0
- 0.0004963550216768636
- 0.0
- 0.0
- 0.0
- 0.00012387025872516555
linear_acceleration:
  x: -0.646434485912323
  y: -0.21547815203666687
  z: 9.823410034179688
linear_acceleration_covariance:
- 0.011731485836207867
- 0.0
- 0.0
- 0.0
- 0.005464145913720131
- 0.0
- 0.0
- 0.0
- 0.012844596058130264
---
header:
  stamp:
    sec: 1775648184
    nanosec: 558193038
  frame_id: zed_imu_link
orientation:
  x: 0.0
  y: 0.0
  z: 0.0
  w: 1.0
orientation_covariance:
- 0.0
- 0.0
- 0.0
- 0.0
- 0.0
- 0.0
- 0.0
- 0.0
- 0.0
angular_velocity:
  x: 0.01864212814331055
  y: -0.009587380187988282
  z: -0.07829693820190431
angular_velocity_covariance:
- 0.00022926369330651984
- 0.0
- 0.0
- 0.0
- 0.0005477457927244972
- 0.0
- 0.0
- 0.0
- 0.00012536395797543875
linear_acceleration:
  x: -0.629675030708313
  y: -0.26096799969673157
  z: 9.639056205749512
linear_acceleration_covariance:
- 0.011751631274819374
- 0.0
- 0.0
- 0.0
- 0.004561394453048706
- 0.0
- 0.0
- 0.0
- 0.013146799989044666
---
header:
  stamp:
    sec: 1775648184
    nanosec: 559430538
  frame_id: zed_imu_link
orientation:
  x: 0.0
  y: 0.0
  z: 0.0
  w: 1.0
orientation_covariance:
- 0.0
- 0.0
- 0.0
- 0.0
- 0.0
- 0.0
- 0.0
- 0.0
- 0.0
angular_velocity:
  x: 0.017044231445312502
  y: -0.015446334747314454
  z: -0.07829693820190431
angular_velocity_covariance:
- 0.00022661451621338335
- 0.0
- 0.0
- 0.0
- 0.0005511205989000438
- 0.0
- 0.0
- 0.0
- 0.00012513680965477086
linear_acceleration:
  x: -0.5291185975074768
  y: -0.2825157940387726
  z: 9.612719535827637
linear_acceleration_covariance:
- 0.011703097261488438
- 0.0
- 0.0
- 0.0
- 0.0046439035795629025
- 0.0
- 0.0
- 0.0
- 0.013203978538513184
---
header:
  stamp:
    sec: 1775648184
    nanosec: 573042048
  frame_id: zed_imu_link
orientation:
  x: 0.0
  y: 0.0
  z: 0.0
  w: 1.0
orientation_covariance:
- 0.0
- 0.0
- 0.0
- 0.0
- 0.0
- 0.0
- 0.0
- 0.0
- 0.0
angular_velocity:
  x: 0.022903186004638674
  y: -0.034088462890625004
  z: -0.08415589276123048
angular_velocity_covariance:
- 0.00022203120580350147
- 0.0
- 0.0
- 0.0
- 0.0005533441304888905
- 0.0
- 0.0
- 0.0
- 0.00012215844406973807
linear_acceleration:
  x: -0.5291185975074768
  y: -0.4165911078453064
  z: 9.473855972290039
linear_acceleration_covariance:
- 0.011425566859543324
- 0.0
- 0.0
- 0.0
- 0.005435641389340162
- 0.0
- 0.0
- 0.0
- 0.01304793730378151
---
header:
  stamp:
    sec: 1775648184
    nanosec: 574318158
  frame_id: zed_imu_link
orientation:
  x: 0.0
  y: 0.0
  z: 0.0
  w: 1.0
orientation_covariance:
- 0.0
- 0.0
- 0.0
- 0.0
- 0.0
- 0.0
- 0.0
- 0.0
- 0.0
angular_velocity:
  x: 0.0271642438659668
  y: -0.036218991821289064
  z: -0.0884169506225586
angular_velocity_covariance:
- 0.00022194443534472909
- 0.0
- 0.0
- 0.0
- 0.0005537551236056036
- 0.0
- 0.0
- 0.0
- 0.00012245343457898157
linear_acceleration:
  x: -0.6344634294509888
  y: -0.43335050344467163
  z: 9.528923034667969
linear_acceleration_covariance:
- 0.011488610878586769
- 0.0
- 0.0
- 0.0
- 0.005514947697520256
- 0.0
- 0.0
- 0.0
- 0.013122809119522572
---
header:
  stamp:
    sec: 1775648184
    nanosec: 589164198
  frame_id: zed_imu_link
orientation:
  x: 0.0
  y: 0.0
  z: 0.0
  w: 1.0
orientation_covariance:
- 0.0
- 0.0
- 0.0
- 0.0
- 0.0
- 0.0
- 0.0
- 0.0
- 0.0
angular_velocity:
  x: 0.0687095538527267
  y: -0.015446334747314454
  z: -0.0985369630432129
angular_velocity_covariance:
- 0.00022636279291553442
- 0.0
- 0.0
- 0.0
- 0.0006271359146852467
- 0.0
- 0.0
- 0.0
- 0.00011600863546535874
linear_acceleration:
  x: -0.6847416758537292
  y: -0.569819986820221
  z: 9.730035781860352
linear_acceleration_covariance:
- 0.011081174947321415
- 0.0
- 0.0
- 0.0
- 0.005476345308125019
- 0.0
- 0.0
- 0.0
- 0.014857403002679348
---
header:
  stamp:
    sec: 1775648184
    nanosec: 604011228
  frame_id: zed_imu_link
orientation:
  x: 0.0
  y: 0.0
  z: 0.0
  w: 1.0
orientation_covariance:
- 0.0
- 0.0
- 0.0
- 0.0
- 0.0
- 0.0
- 0.0
- 0.0
- 0.0
angular_velocity:
  x: 0.07030745471191407
  y: 0.03834952075195313
  z: -0.1315601697908845
angular_velocity_covariance:
- 0.00016523855155601042
- 0.0
- 0.0
- 0.0
- 0.0006913270986716786
- 0.0
- 0.0
- 0.0
- 0.00010070299106998961
linear_acceleration:
  x: -0.751779317855835
  y: -0.3687070608139038
  z: 9.610325813293457
linear_acceleration_covariance:
- 0.010946248658001423
- 0.0
- 0.0
- 0.0
- 0.006916804704815149
- 0.0
- 0.0
- 0.0
- 0.014969217590987682
---
header:
  stamp:
    sec: 1775648184
    nanosec: 620059128
  frame_id: zed_imu_link
orientation:
  x: 0.0
  y: 0.0
  z: 0.0
  w: 1.0
orientation_covariance:
- 0.0
- 0.0
- 0.0
- 0.0
- 0.0
- 0.0
- 0.0
- 0.0
- 0.0
angular_velocity:
  x: 0.0814927315979004
  y: 0.08681905392456056
  z: -0.1342233143094573
angular_velocity_covariance:
- 0.00014356558231937286
- 0.0
- 0.0
- 0.0
- 0.0006703448796617697
- 0.0
- 0.0
- 0.0
- 9.875871728427075e-05
linear_acceleration:
  x: -0.8140285611152649
  y: -0.09576806426048279
  z: 9.586383819580078
linear_acceleration_covariance:
- 0.010428168810904026
- 0.0
- 0.0
- 0.0
- 0.006824754644185305
- 0.0
- 0.0
- 0.0
- 0.014790043234825134
---
header:
  stamp:
    sec: 1775648184
    nanosec: 634909128
  frame_id: zed_imu_link
orientation:
  x: 0.0
  y: 0.0
  z: 0.0
  w: 1.0
orientation_covariance:
- 0.0
- 0.0
- 0.0
- 0.0
- 0.0
- 0.0
- 0.0
- 0.0
- 0.0
angular_velocity:
  x: 0.07563377703857423
  y: 0.09534116964721681
  z: -0.15233281854248049
angular_velocity_covariance:
- 0.00011607355443906467
- 0.0
- 0.0
- 0.0
- 0.0007069688764638364
- 0.0
- 0.0
- 0.0
- 9.067343177370281e-05
linear_acceleration:
  x: -0.7086837291717529
  y: -0.0694318488240242
  z: 9.557653427124023
linear_acceleration_covariance:
- 0.010238365270197392
- 0.0
- 0.0
- 0.0
- 0.007438981905579567
- 0.0
- 0.0
- 0.0
- 0.013608701527118683
---
header:
  stamp:
    sec: 1775648184
    nanosec: 636146628
  frame_id: zed_imu_link
orientation:
  x: 0.0
  y: 0.0
  z: 0.0
  w: 1.0
orientation_covariance:
- 0.0
- 0.0
- 0.0
- 0.0
- 0.0
- 0.0
- 0.0
- 0.0
- 0.0
angular_velocity:
  x: 0.07403588034057618
  y: 0.10066749197387696
  z: -0.14966965737915042
angular_velocity_covariance:
- 0.00011069719943862841
- 0.0
- 0.0
- 0.0
- 0.0007010048644915175
- 0.0
- 0.0
- 0.0
- 8.792483814007496e-05
linear_acceleration:
  x: -0.6320692300796509
  y: -0.10534487664699554
  z: 9.612719535827637
linear_acceleration_covariance:
- 0.010230064392089844
- 0.0
- 0.0
- 0.0
- 0.007665225304663181
- 0.0
- 0.0
- 0.0
- 0.013344228267669678
---
header:
  stamp:
    sec: 1775648184
    nanosec: 650996628
  frame_id: zed_imu_link
orientation:
  x: 0.0
  y: 0.0
  z: 0.0
  w: 1.0
orientation_covariance:
- 0.0
- 0.0
- 0.0
- 0.0
- 0.0
- 0.0
- 0.0
- 0.0
- 0.0
angular_velocity:
  x: 0.06338323984844518
  y: 0.053263223266601566
  z: -0.14753912844848635
angular_velocity_covariance:
- 6.0682695200438326e-05
- 0.0
- 0.0
- 0.0
- 0.0006899712353573272
- 0.0
- 0.0
- 0.0
- 5.777339737543275e-05
linear_acceleration:
  x: -0.9050082564353943
  y: -0.14365209639072418
  z: 9.531316757202148
linear_acceleration_covariance:
- 0.010595826432108879
- 0.0
- 0.0
- 0.0
- 0.008325649425387383
- 0.0
- 0.0
- 0.0
- 0.0120334941893816
---
header:
  stamp:
    sec: 1775648184
    nanosec: 667083138
  frame_id: zed_imu_link
orientation:
  x: 0.0
  y: 0.0
  z: 0.0
  w: 1.0
orientation_covariance:
- 0.0
- 0.0
- 0.0
- 0.0
- 0.0
- 0.0
- 0.0
- 0.0
- 0.0
angular_velocity:
  x: 0.05166532656860352
  y: 0.04900216540527344
  z: -0.1624528309631348
angular_velocity_covariance:
- 5.8379524163005986e-05
- 0.0
- 0.0
- 0.0
- 0.0007146412805698252
- 0.0
- 0.0
- 0.0
- 6.039288386536618e-05
linear_acceleration:
  x: -0.7972691655158997
  y: -0.2968810200691223
  z: 9.440337181091309
linear_acceleration_covariance:
- 0.010187778621912003
- 0.0
- 0.0
- 0.0
- 0.008448733948171139
- 0.0
- 0.0
- 0.0
- 0.011675382032990456
---
header:
  stamp:
    sec: 1775648184
    nanosec: 681932148
  frame_id: zed_imu_link
orientation:
  x: 0.0
  y: 0.0
  z: 0.0
  w: 1.0
orientation_covariance:
- 0.0
- 0.0
- 0.0
- 0.0
- 0.0
- 0.0
- 0.0
- 0.0
- 0.0
angular_velocity:
  x: 0.07776430596923829
  y: 0.08042746713256836
  z: -0.1731054756164551
angular_velocity_covariance:
- 5.3235723615085144e-05
- 0.0
- 0.0
- 0.0
- 0.0008041848353265422
- 0.0
- 0.0
- 0.0
- 5.831047002043935e-05
linear_acceleration:
  x: -1.1563993692398071
  y: -0.2322375625371933
  z: 9.57441234588623
linear_acceleration_covariance:
- 0.010350849479436874
- 0.0
- 0.0
- 0.0
- 0.009646691381931305
- 0.0
- 0.0
- 0.0
- 0.01190878450870514
---
header:
  stamp:
    sec: 1775648184
    nanosec: 683169648
  frame_id: zed_imu_link
orientation:
  x: 0.0
  y: 0.0
  z: 0.0
  w: 1.0
orientation_covariance:
- 0.0
- 0.0
- 0.0
- 0.0
- 0.0
- 0.0
- 0.0
- 0.0
- 0.0
angular_velocity:
  x: 0.07669904150390626
  y: 0.08362326052856446
  z: -0.17044231445312502
angular_velocity_covariance:
- 5.2801081508510084e-05
- 0.0
- 0.0
- 0.0
- 0.0008030400244944612
- 0.0
- 0.0
- 0.0
- 5.748393101602846e-05
linear_acceleration:
  x: -1.0678139925003052
  y: -0.23702596127986908
  z: 9.63187313079834
linear_acceleration_covariance:
- 0.010357384569942951
- 0.0
- 0.0
- 0.0
- 0.00986326951533556
- 0.0
- 0.0
- 0.0
- 0.01197903137654066
---
header:
  stamp:
    sec: 1775648184
    nanosec: 698019648
  frame_id: zed_imu_link
orientation:
  x: 0.0
  y: 0.0
  z: 0.0
  w: 1.0
orientation_covariance:
- 0.0
- 0.0
- 0.0
- 0.0
- 0.0
- 0.0
- 0.0
- 0.0
- 0.0
angular_velocity:
  x: 0.03302319842529297
  y: 0.13049489700317385
  z: -0.18748654589843752
angular_velocity_covariance:
- 7.422659425161163e-05
- 0.0
- 0.0
- 0.0
- 0.0008103547433027275
- 0.0
- 0.0
- 0.0
- 5.009896426781853e-05
linear_acceleration:
  x: -1.1109095811843872
  y: -0.002394201699644327
  z: 9.730035781860352
linear_acceleration_covariance:
- 0.010748776607215405
- 0.0
- 0.0
- 0.0
- 0.011529422365128994
- 0.0
- 0.0
- 0.0
- 0.011972961015999317
---
header:
  stamp:
    sec: 1775648184
    nanosec: 712868658
  frame_id: zed_imu_link
orientation:
  x: 0.0
  y: 0.0
  z: 0.0
  w: 1.0
orientation_covariance:
- 0.0
- 0.0
- 0.0
- 0.0
- 0.0
- 0.0
- 0.0
- 0.0
- 0.0
angular_velocity:
  x: 0.011717909118652345
  y: 0.16351809542846682
  z: -0.1970739260864258
angular_velocity_covariance:
- 7.78660920866263e-05
- 0.0
- 0.0
- 0.0
- 0.0008038758823810577
- 0.0
- 0.0
- 0.0
- 4.5722657415263226e-05
linear_acceleration:
  x: -1.115697979927063
  y: -0.05506663769483566
  z: 9.708487510681152
linear_acceleration_covariance:
- 0.008909801952540874
- 0.0
- 0.0
- 0.0
- 0.012567770667374134
- 0.0
- 0.0
- 0.0
- 0.012324009090662003
---
header:
  stamp:
    sec: 1775648184
    nanosec: 727716678
  frame_id: zed_imu_link
orientation:
  x: 0.0
  y: 0.0
  z: 0.0
  w: 1.0
orientation_covariance:
- 0.0
- 0.0
- 0.0
- 0.0
- 0.0
- 0.0
- 0.0
- 0.0
- 0.0
angular_velocity:
  x: 0.041012681915283206
  y: 0.14753912844848635
  z: -0.19920445501708986
angular_velocity_covariance:
- 0.00010071612738028921
- 0.0
- 0.0
- 0.0
- 0.000859239465846156
- 0.0
- 0.0
- 0.0
- 4.6335570237355446e-05
linear_acceleration:
  x: -1.5083470344543457
  y: -0.16998831927776337
  z: 10.02452278137207
linear_acceleration_covariance:
- 0.009050632826983929
- 0.0
- 0.0
- 0.0
- 0.01306252833455801
- 0.0
- 0.0
- 0.0
- 0.010905339382588863
---
header:
  stamp:
    sec: 1775648184
    nanosec: 728954178
  frame_id: zed_imu_link
orientation:
  x: 0.0
  y: 0.0
  z: 0.0
  w: 1.0
orientation_covariance:
- 0.0
- 0.0
- 0.0
- 0.0
- 0.0
- 0.0
- 0.0
- 0.0
- 0.0
angular_velocity:
  x: 0.044741107543945315
  y: 0.13262541761145927
  z: -0.19760655831909182
angular_velocity_covariance:
- 0.00010231293804202259
- 0.0
- 0.0
- 0.0
- 0.0008748213268117916
- 0.0
- 0.0
- 0.0
- 4.734705705211787e-05
linear_acceleration:
  x: -1.4891934394836426
  y: -0.21787235140800476
  z: 10.06043529510498
linear_acceleration_covariance:
- 0.00894229393452406
- 0.0
- 0.0
- 0.0
- 0.013067424297332764
- 0.0
- 0.0
- 0.0
- 0.010910186916589737
---
header:
  stamp:
    sec: 1775648184
    nanosec: 743801208
  frame_id: zed_imu_link
orientation:
  x: 0.0
  y: 0.0
  z: 0.0
  w: 1.0
orientation_covariance:
- 0.0
- 0.0
- 0.0
- 0.0
- 0.0
- 0.0
- 0.0
- 0.0
- 0.0
angular_velocity:
  x: 0.05912217782592774
  y: 0.07563377703857423
  z: -0.17097494668579102
angular_velocity_covariance:
- 0.00010771446718790515
- 0.0
- 0.0
- 0.0
- 0.0008639683923011005
- 0.0
- 0.0
- 0.0
- 5.3776459356985936e-05
linear_acceleration:
  x: -1.6089035272598267
  y: 0.06703764945268631
  z: 9.799467086791992
linear_acceleration_covariance:
- 0.00852103903889656
- 0.0
- 0.0
- 0.0
- 0.013172890990972519
- 0.0
- 0.0
- 0.0
- 0.011431146413087845
---
header:
  stamp:
    sec: 1775648184
    nanosec: 758651208
  frame_id: zed_imu_link
orientation:
  x: 0.0
  y: 0.0
  z: 0.0
  w: 1.0
orientation_covariance:
- 0.0
- 0.0
- 0.0
- 0.0
- 0.0
- 0.0
- 0.0
- 0.0
- 0.0
angular_velocity:
  x: 0.051132694335937506
  y: 0.009587380187988282
  z: -0.169909682220459
angular_velocity_covariance:
- 0.0001226307883854868
- 0.0
- 0.0
- 0.0
- 0.0007941310823419704
- 0.0
- 0.0
- 0.0
- 6.0241716435543196e-05
linear_acceleration:
  x: -1.3503297567367554
  y: 0.2801215946674347
  z: 9.861717224121094
linear_acceleration_covariance:
- 0.00700519559904933
- 0.0
- 0.0
- 0.0
- 0.0133115965873003
- 0.0
- 0.0
- 0.0
- 0.01065032184123993
---
header:
  stamp:
    sec: 1775648184
    nanosec: 773499228
  frame_id: zed_imu_link
orientation:
  x: 0.0
  y: 0.0
  z: 0.0
  w: 1.0
orientation_covariance:
- 0.0
- 0.0
- 0.0
- 0.0
- 0.0
- 0.0
- 0.0
- 0.0
- 0.0
angular_velocity:
  x: -0.0026631611633300785
  y: -0.056991648895263675
  z: -0.15712650863647462
angular_velocity_covariance:
- 0.00014915281731424552
- 0.0
- 0.0
- 0.0
- 0.0008909280591777604
- 0.0
- 0.0
- 0.0
- 6.467617438389955e-05
linear_acceleration:
  x: -1.3407529592514038
  y: 0.3471592366695404
  z: 10.165780067443848
linear_acceleration_covariance:
- 0.00679883873090148
- 0.0
- 0.0
- 0.0
- 0.01318503450602293
- 0.0
- 0.0
- 0.0
- 0.012235100381076336
---
header:
  stamp:
    sec: 1775648184
    nanosec: 787108758
  frame_id: zed_imu_link
orientation:
  x: 0.0
  y: 0.0
  z: 0.0
  w: 1.0
orientation_covariance:
- 0.0
- 0.0
- 0.0
- 0.0
- 0.0
- 0.0
- 0.0
- 0.0
- 0.0
angular_velocity:
  x: -0.01225054135131836
  y: -0.01597896697998047
  z: -0.13582121100745537
angular_velocity_covariance:
- 0.0001677774453751182
- 0.0
- 0.0
- 0.0
- 0.0008769041809546104
- 0.0
- 0.0
- 0.0
- 6.261172196946876e-05
linear_acceleration:
  x: -1.070208191871643
  y: 0.2082955539226532
  z: 9.742006301879883
linear_acceleration_covariance:
- 0.00628009345382452
- 0.0
- 0.0
- 0.0
- 0.01357489824295044
- 0.0
- 0.0
- 0.0
- 0.013027625158429146
---
header:
  stamp:
    sec: 1775648184
    nanosec: 788346258
  frame_id: zed_imu_link
orientation:
  x: 0.0
  y: 0.0
  z: 0.0
  w: 1.0
orientation_covariance:
- 0.0
- 0.0
- 0.0
- 0.0
- 0.0
- 0.0
- 0.0
- 0.0
- 0.0
angular_velocity:
  x: -0.00745685125732422
  y: -0.02077265707397461
  z: -0.1342233143094573
angular_velocity_covariance:
- 0.00017347622552869938
- 0.0
- 0.0
- 0.0
- 0.0008744929826024508
- 0.0
- 0.0
- 0.0
- 6.17177447611459e-05
linear_acceleration:
  x: -1.1180921792984009
  y: 0.2825157940387726
  z: 9.742006301879883
linear_acceleration_covariance:
- 0.006334977690130472
- 0.0
- 0.0
- 0.0
- 0.013577387668192387
- 0.0
- 0.0
- 0.0
- 0.013126245699822903
---
header:
  stamp:
    sec: 1775648184
    nanosec: 803196258
  frame_id: zed_imu_link
orientation:
  x: 0.0
  y: 0.0
  z: 0.0
  w: 1.0
orientation_covariance:
- 0.0
- 0.0
- 0.0
- 0.0
- 0.0
- 0.0
- 0.0
- 0.0
- 0.0
angular_velocity:
  x: -0.0474042687072754
  y: -0.016511599212646486
  z: -0.13848438049316408
angular_velocity_covariance:
- 0.0001963040280483998
- 0.0
- 0.0
- 0.0
- 0.0008117858476258994
- 0.0
- 0.0
- 0.0
- 5.195332196137263e-05
linear_acceleration:
  x: -0.9265560507774353
  y: 0.2346317619085312
  z: 9.983820915222168
linear_acceleration_covariance:
- 0.00687377480790019
- 0.0
- 0.0
- 0.0
- 0.013603524304926395
- 0.0
- 0.0
- 0.0
- 0.013900268822908401
---
header:
  stamp:
    sec: 1775648184
    nanosec: 818046258
  frame_id: zed_imu_link
orientation:
  x: 0.0
  y: 0.0
  z: 0.0
  w: 1.0
orientation_covariance:
- 0.0
- 0.0
- 0.0
- 0.0
- 0.0
- 0.0
- 0.0
- 0.0
- 0.0
angular_velocity:
  x: -0.08628642169189454
  y: -0.023968450469970707
  z: -0.14327807058715822
angular_velocity_covariance:
- 0.0001933656887191451
- 0.0
- 0.0
- 0.0
- 0.0008913463875665688
- 0.0
- 0.0
- 0.0
- 5.177836482792829e-05
linear_acceleration:
  x: -0.730231523513794
  y: 0.2561795711517334
  z: 9.658209800720215
linear_acceleration_covariance:
- 0.007004161830991507
- 0.0
- 0.0
- 0.0
- 0.01349478680640459
- 0.0
- 0.0
- 0.0
- 0.013914540410041809
---
header:
  stamp:
    sec: 1775648184
    nanosec: 832896258
  frame_id: zed_imu_link
orientation:
  x: 0.0
  y: 0.0
  z: 0.0
  w: 1.0
orientation_covariance:
- 0.0
- 0.0
- 0.0
- 0.0
- 0.0
- 0.0
- 0.0
- 0.0
- 0.0
angular_velocity:
  x: -0.14327807058715822
  y: -0.022903186004638674
  z: -0.16831178552246095
angular_velocity_covariance:
- 0.0001940226858002663
- 0.0
- 0.0
- 0.0
- 0.0008724065697632691
- 0.0
- 0.0
- 0.0
- 4.9187924381397465e-05
linear_acceleration:
  x: -0.5123591423034668
  y: 0.14844051003456116
  z: 9.428366661071777
linear_acceleration_covariance:
- 0.006974569521844387
- 0.0
- 0.0
- 0.0
- 0.013162784278392792
- 0.0
- 0.0
- 0.0
- 0.01236193347722292
---
header:
  stamp:
    sec: 1775648184
    nanosec: 834133758
  frame_id: zed_imu_link
orientation:
  x: 0.0
  y: 0.0
  z: 0.0
  w: 1.0
orientation_covariance:
- 0.0
- 0.0
- 0.0
- 0.0
- 0.0
- 0.0
- 0.0
- 0.0
- 0.0
angular_velocity:
  x: -0.1459412317504883
  y: -0.019174760375976565
  z: -0.16351809542846682
angular_velocity_covariance:
- 0.00019341004532738551
- 0.0
- 0.0
- 0.0
- 0.0008635304547690666
- 0.0
- 0.0
- 0.0
- 4.934699901665994e-05
linear_acceleration:
  x: -0.5195417404174805
  y: 0.17477671802043915
  z: 9.3828763961792
linear_acceleration_covariance:
- 0.006934978533536196
- 0.0
- 0.0
- 0.0
- 0.01316925697028637
- 0.0
- 0.0
- 0.0
- 0.01235216110944748
---
header:
  stamp:
    sec: 1775648184
    nanosec: 847743288
  frame_id: zed_imu_link
orientation:
  x: 0.0
  y: 0.0
  z: 0.0
  w: 1.0
orientation_covariance:
- 0.0
- 0.0
- 0.0
- 0.0
- 0.0
- 0.0
- 0.0
- 0.0
- 0.0
angular_velocity:
  x: -0.18748654589843752
  y: -0.006391586791992188
  z: -0.15712650863647462
angular_velocity_covariance:
- 0.0001888118828071718
- 0.0
- 0.0
- 0.0
- 0.0007798909225316899
- 0.0
- 0.0
- 0.0
- 5.410337827212002e-05
linear_acceleration:
  x: -0.4213795065879822
  y: -0.023942016065120697
  z: 9.536105155944824
linear_acceleration_covariance:
- 0.006959649734199047
- 0.0
- 0.0
- 0.0
- 0.01201857253909111
- 0.0
- 0.0
- 0.0
- 0.013547509908676147
---
header:
  stamp:
    sec: 1775648184
    nanosec: 861352818
  frame_id: zed_imu_link
orientation:
  x: 0.0
  y: 0.0
  z: 0.0
  w: 1.0
orientation_covariance:
- 0.0
- 0.0
- 0.0
- 0.0
- 0.0
- 0.0
- 0.0
- 0.0
- 0.0
angular_velocity:
  x: -0.1768339012451172
  y: 0.044741107543945315
  z: -0.1374191077054534
angular_velocity_covariance:
- 0.00019553280770799074
- 0.0
- 0.0
- 0.0
- 0.0008043048868589555
- 0.0
- 0.0
- 0.0
- 5.440142817083895e-05
linear_acceleration:
  x: -0.35673606395721436
  y: -0.31124621629714966
  z: 9.732429504394531
linear_acceleration_covariance:
- 0.006934338714927435
- 0.0
- 0.0
- 0.0
- 0.011776379309594631
- 0.0
- 0.0
- 0.0
- 0.01391312014311552
---
header:
  stamp:
    sec: 1775648184
    nanosec: 862590318
  frame_id: zed_imu_link
orientation:
  x: 0.0
  y: 0.0
  z: 0.0
  w: 1.0
orientation_covariance:
- 0.0
- 0.0
- 0.0
- 0.0
- 0.0
- 0.0
- 0.0
- 0.0
- 0.0
angular_velocity:
  x: -0.17417074008178712
  y: 0.056991648895263675
  z: -0.13102752091346123
angular_velocity_covariance:
- 0.00019741572121636679
- 0.0
- 0.0
- 0.0
- 0.000809327587329999
- 0.0
- 0.0
- 0.0
- 5.4658380573547994e-05
linear_acceleration:
  x: -0.3423708379268646
  y: -0.2825157940387726
  z: 9.77791976928711
linear_acceleration_covariance:
- 0.00689800875261426
- 0.0
- 0.0
- 0.0
- 0.0117641007527709
- 0.0
- 0.0
- 0.0
- 0.013910701498389244
---
header:
  stamp:
    sec: 1775648184
    nanosec: 876199848
  frame_id: zed_imu_link
orientation:
  x: 0.0
  y: 0.0
  z: 0.0
  w: 1.0
orientation_covariance:
- 0.0
- 0.0
- 0.0
- 0.0
- 0.0
- 0.0
- 0.0
- 0.0
- 0.0
angular_velocity:
  x: -0.060720074523925784
  y: 0.17470337231445315
  z: -0.08735168615722658
angular_velocity_covariance:
- 0.00023132317988699497
- 0.0
- 0.0
- 0.0
- 0.0008219977810324894
- 0.0
- 0.0
- 0.0
- 5.4302170500720967e-05
linear_acceleration:
  x: -0.35673606395721436
  y: -0.07422025501728058
  z: 9.86889934539795
linear_acceleration_covariance:
- 0.00680143479257822
- 0.0
- 0.0
- 0.0
- 0.012831201776862144
- 0.0
- 0.0
- 0.0
- 0.014821281656622887
---
header:
  stamp:
    sec: 1775648184
    nanosec: 891047868
  frame_id: zed_imu_link
orientation:
  x: 0.0
  y: 0.0
  z: 0.0
  w: 1.0
orientation_covariance:
- 0.0
- 0.0
- 0.0
- 0.0
- 0.0
- 0.0
- 0.0
- 0.0
- 0.0
angular_velocity:
  x: 0.0026631611633300785
  y: 0.31105722387695317
  z: -0.08575378945922853
angular_velocity_covariance:
- 0.0002891038081339921
- 0.0
- 0.0
- 0.0
- 0.000791232415214519
- 0.0
- 0.0
- 0.0
- 8.338529424847532e-05
linear_acceleration:
  x: -0.6703764796257019
  y: 0.2561795711517334
  z: 9.555258750915527
linear_acceleration_covariance:
- 0.006671118084341288
- 0.0
- 0.0
- 0.0
- 0.012273581698536873
- 0.0
- 0.0
- 0.0
- 0.01738131418824196
---
header:
  stamp:
    sec: 1775648184
    nanosec: 905896878
  frame_id: zed_imu_link
orientation:
  x: 0.0
  y: 0.0
  z: 0.0
  w: 1.0
orientation_covariance:
- 0.0
- 0.0
- 0.0
- 0.0
- 0.0
- 0.0
- 0.0
- 0.0
- 0.0
angular_velocity:
  x: -0.19121497152709963
  y: 0.41545314147949225
  z: -0.12889700030517579
angular_velocity_covariance:
- 0.0008030253539502704
- 0.0
- 0.0
- 0.0
- 0.0008195122858154426
- 0.0
- 0.0
- 0.0
- 0.00012487366584665457
linear_acceleration:
  x: -0.7757213711738586
  y: 1.0749965906143188
  z: 9.466673851013184
linear_acceleration_covariance:
- 0.007152942009270191
- 0.0
- 0.0
- 0.0
- 0.014744145795702934
- 0.0
- 0.0
- 0.0
- 0.018648486584424973
---
header:
  stamp:
    sec: 1775648184
    nanosec: 919509378
  frame_id: zed_imu_link
orientation:
  x: 0.0
  y: 0.0
  z: 0.0
  w: 1.0
orientation_covariance:
- 0.0
- 0.0
- 0.0
- 0.0
- 0.0
- 0.0
- 0.0
- 0.0
- 0.0
angular_velocity:
  x: -0.27430559982299807
  y: 0.43942159194946295
  z: -0.08096009936523438
angular_velocity_covariance:
- 0.001090126741741896
- 0.0
- 0.0
- 0.0
- 0.0008443691989002327
- 0.0
- 0.0
- 0.0
- 0.00018010473326376158
linear_acceleration:
  x: -1.1013327836990356
  y: 0.7876923680305481
  z: 9.418789863586426
linear_acceleration_covariance:
- 0.0073471395298838615
- 0.0
- 0.0
- 0.0
- 0.035094764083623886
- 0.0
- 0.0
- 0.0
- 0.020777970552444458
---
header:
  stamp:
    sec: 1775648184
    nanosec: 933121878
  frame_id: zed_imu_link
orientation:
  x: 0.0
  y: 0.0
  z: 0.0
  w: 1.0
orientation_covariance:
- 0.0
- 0.0
- 0.0
- 0.0
- 0.0
- 0.0
- 0.0
- 0.0
- 0.0
angular_velocity:
  x: -0.16458335989379885
  y: 0.4894890218200684
  z: -0.08202536383056641
angular_velocity_covariance:
- 0.0021825441219183437
- 0.0
- 0.0
- 0.0
- 0.0007918175665736559
- 0.0
- 0.0
- 0.0
- 0.000239451097127464
linear_acceleration:
  x: -1.5849615335464478
  y: 0.8738836050033569
  z: 10.089165687561035
linear_acceleration_covariance:
- 0.007243550382554531
- 0.0
- 0.0
- 0.0
- 0.03316246345639229
- 0.0
- 0.0
- 0.0
- 0.02382718026638031
---
header:
  stamp:
    sec: 1775648184
    nanosec: 947970888
  frame_id: zed_imu_link
orientation:
  x: 0.0
  y: 0.0
  z: 0.0
  w: 1.0
orientation_covariance:
- 0.0
- 0.0
- 0.0
- 0.0
- 0.0
- 0.0
- 0.0
- 0.0
- 0.0
angular_velocity:
  x: -0.08681905392456056
  y: 0.3781688851928711
  z: 0.019174760375976565
angular_velocity_covariance:
- 0.00232177194387689
- 0.0
- 0.0
- 0.0
- 0.0007906384034277022
- 0.0
- 0.0
- 0.0
- 0.00026086829414130884
linear_acceleration:
  x: -2.030282974243164
  y: 0.5386953949928284
  z: 10.402806282043457
linear_acceleration_covariance:
- 0.008441034704446793
- 0.0
- 0.0
- 0.0
- 0.03253014758229256
- 0.0
- 0.0
- 0.0
- 0.026203064247965813
---
header:
  stamp:
    sec: 1775648184
    nanosec: 961580418
  frame_id: zed_imu_link
orientation:
  x: 0.0
  y: 0.0
  z: 0.0
  w: 1.0
orientation_covariance:
- 0.0
- 0.0
- 0.0
- 0.0
- 0.0
- 0.0
- 0.0
- 0.0
- 0.0
angular_velocity:
  x: -0.09906959527587891
  y: 0.38615836868286135
  z: 0.02077265707397461
angular_velocity_covariance:
- 0.002568377981608562
- 0.0
- 0.0
- 0.0
- 0.000879316904462354
- 0.0
- 0.0
- 0.0
- 0.00032825814698992663
linear_acceleration:
  x: -2.1140801906585693
  y: 0.3471592366695404
  z: 9.694122314453125
linear_acceleration_covariance:
- 0.011209554970264435
- 0.0
- 0.0
- 0.0
- 0.035354409366846085
- 0.0
- 0.0
- 0.0
- 0.04224768280982971
---
header:
  stamp:
    sec: 1775648184
    nanosec: 975192918
  frame_id: zed_imu_link
orientation:
  x: 0.0
  y: 0.0
  z: 0.0
  w: 1.0
orientation_covariance:
- 0.0
- 0.0
- 0.0
- 0.0
- 0.0
- 0.0
- 0.0
- 0.0
- 0.0
angular_velocity:
  x: -0.10599381430053711
  y: 0.28336034777832037
  z: -0.009054747955322266
angular_velocity_covariance:
- 0.002767789604942834
- 0.0
- 0.0
- 0.0
- 0.0008459421426927349
- 0.0
- 0.0
- 0.0
- 0.0004640002621740187
linear_acceleration:
  x: -2.4851813316345215
  y: -0.05267243832349777
  z: 10.26394271850586
linear_acceleration_covariance:
- 0.010645288042724133
- 0.0
- 0.0
- 0.0
- 0.03535674884915352
- 0.0
- 0.0
- 0.0
- 0.04901805892586708
---
header:
  stamp:
    sec: 1775648184
    nanosec: 990042918
  frame_id: zed_imu_link
orientation:
  x: 0.0
  y: 0.0
  z: 0.0
  w: 1.0
orientation_covariance:
- 0.0
- 0.0
- 0.0
- 0.0
- 0.0
- 0.0
- 0.0
- 0.0
- 0.0
angular_velocity:
  x: -0.17044231445312502
  y: 0.13369069039916995
  z: -0.0372842562866211
angular_velocity_covariance:
- 0.002858181073577908
- 0.0
- 0.0
- 0.0
- 0.0007765647034554686
- 0.0
- 0.0
- 0.0
- 0.0004545894712078706
linear_acceleration:
  x: -2.5474305152893066
  y: -0.30885201692581177
  z: 10.809821128845215
linear_acceleration_covariance:
- 0.010843997821211815
- 0.0
- 0.0
- 0.0
- 0.03515085577964783
- 0.0
- 0.0
- 0.0
- 0.0572366863489151
---
header:
  stamp:
    sec: 1775648185
    nanosec: 2417918
  frame_id: zed_imu_link
orientation:
  x: 0.0
  y: 0.0
  z: 0.0
  w: 1.0
orientation_covariance:
- 0.0
- 0.0
- 0.0
- 0.0
- 0.0
- 0.0
- 0.0
- 0.0
- 0.0
angular_velocity:
  x: -0.10439591760253908
  y: 0.03568635958862305
  z: -0.04048004968261719
angular_velocity_covariance:
- 0.0030444316209909477
- 0.0
- 0.0
- 0.0
- 0.0007633748674575052
- 0.0
- 0.0
- 0.0
- 0.0004985249549408943
linear_acceleration:
  x: -2.456450939178467
  y: -0.4357447028160095
  z: 10.45547866821289
linear_acceleration_covariance:
- 0.010461244732141495
- 0.0
- 0.0
- 0.0
- 0.03493963181972504
- 0.0
- 0.0
- 0.0
- 0.06055047735571861
---
header:
  stamp:
    sec: 1775648185
    nanosec: 3655418
  frame_id: zed_imu_link
orientation:
  x: 0.0
  y: 0.0
  z: 0.0
  w: 1.0
orientation_covariance:
- 0.0
- 0.0
- 0.0
- 0.0
- 0.0
- 0.0
- 0.0
- 0.0
- 0.0
angular_velocity:
  x: -0.0948085374145508
  y: 0.029294772796630862
  z: -0.04527373977661133
angular_velocity_covariance:
- 0.003078706369808156
- 0.0
- 0.0
- 0.0
- 0.0007561557976923049
- 0.0
- 0.0
- 0.0
- 0.0005006919468334412
linear_acceleration:
  x: -2.4803929328918457
  y: -0.3734954595565796
  z: 10.42195987701416
linear_acceleration_covariance:
- 0.01044814195483923
- 0.0
- 0.0
- 0.0
- 0.03496697545051575
- 0.0
- 0.0
- 0.0
- 0.06099100410938263
---
header:
  stamp:
    sec: 1775648185
    nanosec: 16027448
  frame_id: zed_imu_link
orientation:
  x: 0.0
  y: 0.0
  z: 0.0
  w: 1.0
orientation_covariance:
- 0.0
- 0.0
- 0.0
- 0.0
- 0.0
- 0.0
- 0.0
- 0.0
- 0.0
angular_velocity:
  x: -0.06338323984844518
  y: -0.10439591760253908
  z: -0.05060006210327149
angular_velocity_covariance:
- 0.0031508883522853924
- 0.0
- 0.0
- 0.0
- 0.0006666624278169536
- 0.0
- 0.0
- 0.0
- 0.0005131249425293608
linear_acceleration:
  x: -2.4372973442077637
  y: -0.3711012601852417
  z: 10.551246643066406
linear_acceleration_covariance:
- 0.010466072708368301
- 0.0
- 0.0
- 0.0
- 0.03536846116185188
- 0.0
- 0.0
- 0.0
- 0.05996556952595711
---
header:
  stamp:
    sec: 1775648185
    nanosec: 17264948
  frame_id: zed_imu_link
orientation:
  x: 0.0
  y: 0.0
  z: 0.0
  w: 1.0
orientation_covariance:
- 0.0
- 0.0
- 0.0
- 0.0
- 0.0
- 0.0
- 0.0
- 0.0
- 0.0
angular_velocity:
  x: -0.06551376045673062
  y: -0.11771172341918947
  z: -0.048469533172607424
angular_velocity_covariance:
- 0.003148774050886956
- 0.0
- 0.0
- 0.0
- 0.0006636159658507477
- 0.0
- 0.0
- 0.0
- 0.0005152061262636825
linear_acceleration:
  x: -2.387019157409668
  y: -0.3423708379268646
  z: 10.575188636779785
linear_acceleration_covariance:
- 0.010450975969433784
- 0.0
- 0.0
- 0.0
- 0.035449180752038956
- 0.0
- 0.0
- 0.0
- 0.05968789756298065
---
header:
  stamp:
    sec: 1775648185
    nanosec: 18541058
  frame_id: zed_imu_link
orientation:
  x: 0.0
  y: 0.0
  z: 0.0
  w: 1.0
orientation_covariance:
- 0.0
- 0.0
- 0.0
- 0.0
- 0.0
- 0.0
- 0.0
- 0.0
- 0.0
angular_velocity:
  x: -0.06764429354858399
  y: -0.1342233143094573
  z: -0.04687163647460938
angular_velocity_covariance:
- 0.0031470981227792925
- 0.0
- 0.0
- 0.0
- 0.0006590752871707669
- 0.0
- 0.0
- 0.0
- 0.0005173162516408758
linear_acceleration:
  x: -2.425326347351074
  y: -0.3256114423274994
  z: 10.584765434265137
linear_acceleration_covariance:
- 0.010484836995601654
- 0.0
- 0.0
- 0.0
- 0.035475146025419235
- 0.0
- 0.0
- 0.0
- 0.05954539775848389
---
header:
  stamp:
    sec: 1775648185
    nanosec: 37063958
  frame_id: zed_imu_link
orientation:
  x: 0.0
  y: 0.0
  z: 0.0
  w: 1.0
orientation_covariance:
- 0.0
- 0.0
- 0.0
- 0.0
- 0.0
- 0.0
- 0.0
- 0.0
- 0.0
angular_velocity:
  x: -0.08202536383056641
  y: -0.2854908767089844
  z: -0.06604639685058594
angular_velocity_covariance:
- 0.003167786785652472
- 0.0
- 0.0
- 0.0
- 0.0007039070176888758
- 0.0
- 0.0
- 0.0
- 0.0005220670386591938
linear_acceleration:
  x: -1.9560627937316895
  y: -0.38546648621559143
  z: 10.204087257385254
linear_acceleration_covariance:
- 0.011166558600962162
- 0.0
- 0.0
- 0.0
- 0.03559071570634842
- 0.0
- 0.0
- 0.0
- 0.05956217274069786
---
header:
  stamp:
    sec: 1775648185
    nanosec: 40776458
  frame_id: zed_imu_link
orientation:
  x: 0.0
  y: 0.0
  z: 0.0
  w: 1.0
orientation_covariance:
- 0.0
- 0.0
- 0.0
- 0.0
- 0.0
- 0.0
- 0.0
- 0.0
- 0.0
angular_velocity:
  x: -0.0846885249938965
  y: -0.3137203850402832
  z: -0.07084008694458009
angular_velocity_covariance:
- 0.003179032266159953
- 0.0
- 0.0
- 0.0
- 0.0006920076811945125
- 0.0
- 0.0
- 0.0
- 0.0005231792402123556
linear_acceleration:
  x: -1.7597382068634033
  y: -0.43335050344467163
  z: 10.127472877502441
linear_acceleration_covariance:
- 0.0112081840634346
- 0.0
- 0.0
- 0.0
- 0.03595800697803497
- 0.0
- 0.0
- 0.0
- 0.05949831381440163
---
header:
  stamp:
    sec: 1775648185
    nanosec: 44487968
  frame_id: zed_imu_link
orientation:
  x: 0.0
  y: 0.0
  z: 0.0
  w: 1.0
orientation_covariance:
- 0.0
- 0.0
- 0.0
- 0.0
- 0.0
- 0.0
- 0.0
- 0.0
- 0.0
angular_velocity:
  x: -0.08415589276123048
  y: -0.32117723629760747
  z: -0.0814927315979004
angular_velocity_covariance:
- 0.0031799363202891
- 0.0
- 0.0
- 0.0
- 0.0006878491629280577
- 0.0
- 0.0
- 0.0
- 0.0005257870746951919
linear_acceleration:
  x: -1.7357962131500244
  y: -0.47644615173339844
  z: 9.952696800231934
linear_acceleration_covariance:
- 0.011140963062644005
- 0.0
- 0.0
- 0.0
- 0.03689207136631012
- 0.0
- 0.0
- 0.0
- 0.0589735172688961
---
header:
  stamp:
    sec: 1775648185
    nanosec: 58097498
  frame_id: zed_imu_link
orientation:
  x: 0.0
  y: 0.0
  z: 0.0
  w: 1.0
orientation_covariance:
- 0.0
- 0.0
- 0.0
- 0.0
- 0.0
- 0.0
- 0.0
- 0.0
- 0.0
angular_velocity:
  x: -0.05379585549926758
  y: -0.3499393768615723
  z: -0.0687095538527267
angular_velocity_covariance:
- 0.00315642684584972
- 0.0
- 0.0
- 0.0
- 0.0007817458022278994
- 0.0
- 0.0
- 0.0
- 0.0005272349194165616
linear_acceleration:
  x: -1.5514427423477173
  y: -0.730231523513794
  z: 9.751583099365234
linear_acceleration_covariance:
- 0.011118179187178612
- 0.0
- 0.0
- 0.0
- 0.03824112191796303
- 0.0
- 0.0
- 0.0
- 0.05908498913049698
---
header:
  stamp:
    sec: 1775648185
    nanosec: 70470518
  frame_id: zed_imu_link
orientation:
  x: 0.0
  y: 0.0
  z: 0.0
  w: 1.0
orientation_covariance:
- 0.0
- 0.0
- 0.0
- 0.0
- 0.0
- 0.0
- 0.0
- 0.0
- 0.0
angular_velocity:
  x: -0.013848438049316408
  y: -0.2556634716796875
  z: -0.06817692578125001
angular_velocity_covariance:
- 0.0031554460981826245
- 0.0
- 0.0
- 0.0
- 0.0008465532216968033
- 0.0
- 0.0
- 0.0
- 0.0005311035128691061
linear_acceleration:
  x: -1.2880805730819702
  y: -0.7613561153411865
  z: 10.129867553710938
linear_acceleration_covariance:
- 0.01181861013174057
- 0.0
- 0.0
- 0.0
- 0.03873063623905182
- 0.0
- 0.0
- 0.0
- 0.06766843050718307
---
header:
  stamp:
    sec: 1775648185
    nanosec: 82843538
  frame_id: zed_imu_link
orientation:
  x: 0.0
  y: 0.0
  z: 0.0
  w: 1.0
orientation_covariance:
- 0.0
- 0.0
- 0.0
- 0.0
- 0.0
- 0.0
- 0.0
- 0.0
- 0.0
angular_velocity:
  x: 0.02343581823730469
  y: -0.20133498394775393
  z: -0.08415589276123048
angular_velocity_covariance:
- 0.0031598745689874826
- 0.0
- 0.0
- 0.0
- 0.0008746185537455497
- 0.0
- 0.0
- 0.0
- 0.00054528364691318
linear_acceleration:
  x: -0.8188169598579407
  y: -0.706289529800415
  z: 9.6989107131958
linear_acceleration_covariance:
- 0.012850518338382244
- 0.0
- 0.0
- 0.0
- 0.03934958204627037
- 0.0
- 0.0
- 0.0
- 0.06943976134061813
---
header:
  stamp:
    sec: 1775648185
    nanosec: 84081038
  frame_id: zed_imu_link
orientation:
  x: 0.0
  y: 0.0
  z: 0.0
  w: 1.0
orientation_covariance:
- 0.0
- 0.0
- 0.0
- 0.0
- 0.0
- 0.0
- 0.0
- 0.0
- 0.0
angular_velocity:
  x: 0.01491370251464844
  y: -0.18162759133911136
  z: -0.09214537625122071
angular_velocity_covariance:
- 0.0031621042011986656
- 0.0
- 0.0
- 0.0
- 0.0008777077200681131
- 0.0
- 0.0
- 0.0
- 0.0005472317426661664
linear_acceleration:
  x: -0.8044517636299133
  y: -0.6631938815116882
  z: 9.610325813293457
linear_acceleration_covariance:
- 0.012979768216609955
- 0.0
- 0.0
- 0.0
- 0.039437323808670044
- 0.0
- 0.0
- 0.0
- 0.06968718022108078
---
header:
  stamp:
    sec: 1775648185
    nanosec: 96456038
  frame_id: zed_imu_link
orientation:
  x: 0.0
  y: 0.0
  z: 0.0
  w: 1.0
orientation_covariance:
- 0.0
- 0.0
- 0.0
- 0.0
- 0.0
- 0.0
- 0.0
- 0.0
- 0.0
angular_velocity:
  x: -0.023968450469970707
  y: -0.13262541761145927
  z: -0.13102752091346123
angular_velocity_covariance:
- 0.0031947326535024176
- 0.0
- 0.0
- 0.0
- 0.0010786884379926987
- 0.0
- 0.0
- 0.0
- 0.0005530147331959321
linear_acceleration:
  x: -0.5841852426528931
  y: -0.6607996821403503
  z: 9.081207275390625
linear_acceleration_covariance:
- 0.01343340240418911
- 0.0
- 0.0
- 0.0
- 0.03941260650753975
- 0.0
- 0.0
- 0.0
- 0.07344820350408554
---
header:
  stamp:
    sec: 1775648185
    nanosec: 97693538
  frame_id: zed_imu_link
orientation:
  x: 0.0
  y: 0.0
  z: 0.0
  w: 1.0
orientation_covariance:
- 0.0
- 0.0
- 0.0
- 0.0
- 0.0
- 0.0
- 0.0
- 0.0
- 0.0
angular_velocity:
  x: -0.027696876098632816
  y: -0.12090751681518556
  z: -0.13954964495849612
angular_velocity_covariance:
- 0.0031977483944775707
- 0.0
- 0.0
- 0.0
- 0.0010938160931000692
- 0.0
- 0.0
- 0.0
- 0.0005525843125021348
linear_acceleration:
  x: -0.507570743560791
  y: -0.6727706789970398
  z: 9.059659004211426
linear_acceleration_covariance:
- 0.01360634621232748
- 0.0
- 0.0
- 0.0
- 0.03941499441862106
- 0.0
- 0.0
- 0.0
- 0.07340875267982483
---
header:
  stamp:
    sec: 1775648185
    nanosec: 110067548
  frame_id: zed_imu_link
orientation:
  x: 0.0
  y: 0.0
  z: 0.0
  w: 1.0
orientation_covariance:
- 0.0
- 0.0
- 0.0
- 0.0
- 0.0
- 0.0
- 0.0
- 0.0
- 0.0
angular_velocity:
  x: -0.03781688851928711
  y: -0.07563377703857423
  z: -0.15499597970581055
angular_velocity_covariance:
- 0.0032064545635638194
- 0.0
- 0.0
- 0.0
- 0.0011918976140700352
- 0.0
- 0.0
- 0.0
- 0.0005598882099683989
linear_acceleration:
  x: -0.3447650372982025
  y: -0.6368576288223267
  z: 9.097966194152832
linear_acceleration_covariance:
- 0.013757910579442978
- 0.0
- 0.0
- 0.0
- 0.039498601108789444
- 0.0
- 0.0
- 0.0
- 0.07317810505628586
---
header:
  stamp:
    sec: 1775648185
    nanosec: 123679058
  frame_id: zed_imu_link
orientation:
  x: 0.0
  y: 0.0
  z: 0.0
  w: 1.0
orientation_covariance:
- 0.0
- 0.0
- 0.0
- 0.0
- 0.0
- 0.0
- 0.0
- 0.0
- 0.0
angular_velocity:
  x: -0.009054747955322266
  y: -0.01491370251464844
  z: -0.1901497070617676
angular_velocity_covariance:
- 0.0032472956155561914
- 0.0
- 0.0
- 0.0
- 0.0011622403100972122
- 0.0
- 0.0
- 0.0
- 0.0005717563897129709
linear_acceleration:
  x: -0.4141969084739685
  y: -0.5554547905921936
  z: 8.83699893951416
linear_acceleration_covariance:
- 0.014580891467630863
- 0.0
- 0.0
- 0.0
- 0.03949287161231041
- 0.0
- 0.0
- 0.0
- 0.07352013140916824
---
header:
  stamp:
    sec: 1775648185
    nanosec: 124916558
  frame_id: zed_imu_link
orientation:
  x: 0.0
  y: 0.0
  z: 0.0
  w: 1.0
orientation_covariance:
- 0.0
- 0.0
- 0.0
- 0.0
- 0.0
- 0.0
- 0.0
- 0.0
- 0.0
angular_velocity:
  x: -0.007989483489990234
  y: -0.018109495910644532
  z: -0.1938781326904297
angular_velocity_covariance:
- 0.0032493518157895146
- 0.0
- 0.0
- 0.0
- 0.0011540868283440938
- 0.0
- 0.0
- 0.0
- 0.0005715936338242001
linear_acceleration:
  x: -0.40222588181495667
  y: -0.5889736413955688
  z: 8.877699851989746
linear_acceleration_covariance:
- 0.014640847221016884
- 0.0
- 0.0
- 0.0
- 0.03945538029074669
- 0.0
- 0.0
- 0.0
- 0.0734962448477745
---
header:
  stamp:
    sec: 1775648185
    nanosec: 137291558
  frame_id: zed_imu_link
orientation:
  x: 0.0
  y: 0.0
  z: 0.0
  w: 1.0
orientation_covariance:
- 0.0
- 0.0
- 0.0
- 0.0
- 0.0
- 0.0
- 0.0
- 0.0
- 0.0
angular_velocity:
  x: -0.0021305289306640628
  y: 0.036218991821289064
  z: -0.2066613062744141
angular_velocity_covariance:
- 0.0032318171746644553
- 0.0
- 0.0
- 0.0
- 0.0011572545764924715
- 0.0
- 0.0
- 0.0
- 0.0005794777077373385
linear_acceleration:
  x: -0.7110779285430908
  y: -0.47405192255973816
  z: 9.002198219299316
linear_acceleration_covariance:
- 0.015024335123598576
- 0.0
- 0.0
- 0.0
- 0.03805309534072876
- 0.0
- 0.0
- 0.0
- 0.07286026328802109
---
header:
  stamp:
    sec: 1775648185
    nanosec: 150903068
  frame_id: zed_imu_link
orientation:
  x: 0.0
  y: 0.0
  z: 0.0
  w: 1.0
orientation_covariance:
- 0.0
- 0.0
- 0.0
- 0.0
- 0.0
- 0.0
- 0.0
- 0.0
- 0.0
angular_velocity:
  x: -0.02077265707397461
  y: 0.09640643411254883
  z: -0.24341293032836916
angular_velocity_covariance:
- 0.00319441832619916
- 0.0
- 0.0
- 0.0
- 0.0012392942205220255
- 0.0
- 0.0
- 0.0
- 0.0005520757094280332
linear_acceleration:
  x: -0.9313444495201111
  y: -0.6009446382522583
  z: 9.387664794921875
linear_acceleration_covariance:
- 0.015329073183238506
- 0.0
- 0.0
- 0.0
- 0.037414319813251495
- 0.0
- 0.0
- 0.0
- 0.0701894462108612
---
header:
  stamp:
    sec: 1775648185
    nanosec: 152179178
  frame_id: zed_imu_link
orientation:
  x: 0.0
  y: 0.0
  z: 0.0
  w: 1.0
orientation_covariance:
- 0.0
- 0.0
- 0.0
- 0.0
- 0.0
- 0.0
- 0.0
- 0.0
- 0.0
angular_velocity:
  x: -0.022903186004638674
  y: 0.09960222750854493
  z: -0.2450108270263672
angular_velocity_covariance:
- 0.003182950318229299
- 0.0
- 0.0
- 0.0
- 0.0012460646040396463
- 0.0
- 0.0
- 0.0
- 0.0005457968254540341
linear_acceleration:
  x: -1.036689281463623
  y: -0.667982280254364
  z: 9.454702377319336
linear_acceleration_covariance:
- 0.015309334732592106
- 0.0
- 0.0
- 0.0
- 0.03729250654578209
- 0.0
- 0.0
- 0.0
- 0.06995925307273865
---
header:
  stamp:
    sec: 1775648185
    nanosec: 164512598
  frame_id: zed_imu_link
orientation:
  x: 0.0
  y: 0.0
  z: 0.0
  w: 1.0
orientation_covariance:
- 0.0
- 0.0
- 0.0
- 0.0
- 0.0
- 0.0
- 0.0
- 0.0
- 0.0
angular_velocity:
  x: -0.01225054135131836
  y: 0.13315806648888256
  z: -0.2918824635009766
angular_velocity_covariance:
- 0.002725600024908206
- 0.0
- 0.0
- 0.0
- 0.0012171581123729864
- 0.0
- 0.0
- 0.0
- 0.0005110200099437994
linear_acceleration:
  x: -1.137245774269104
  y: -0.8307880163192749
  z: 9.53849983215332
linear_acceleration_covariance:
- 0.015737172216176987
- 0.0
- 0.0
- 0.0
- 0.03511393442749977
- 0.0
- 0.0
- 0.0
- 0.07030510902404785
---
header:
  stamp:
    sec: 1775648185
    nanosec: 178123118
  frame_id: zed_imu_link
orientation:
  x: 0.0
  y: 0.0
  z: 0.0
  w: 1.0
orientation_covariance:
- 0.0
- 0.0
- 0.0
- 0.0
- 0.0
- 0.0
- 0.0
- 0.0
- 0.0
angular_velocity:
  x: -0.013315805816650391
  y: 0.15233281854248049
  z: -0.339819364440918
angular_velocity_covariance:
- 0.0023767016568915127
- 0.0
- 0.0
- 0.0
- 0.001099880402208663
- 0.0
- 0.0
- 0.0
- 0.0004781675776485397
linear_acceleration:
  x: -1.0630255937576294
  y: -0.6560112833976746
  z: 9.334992408752441
linear_acceleration_covariance:
- 0.016901737079024315
- 0.0
- 0.0
- 0.0
- 0.016027670353651047
- 0.0
- 0.0
- 0.0
- 0.07120784372091293
---
header:
  stamp:
    sec: 1775648185
    nanosec: 192973118
  frame_id: zed_imu_link
orientation:
  x: 0.0
  y: 0.0
  z: 0.0
  w: 1.0
orientation_covariance:
- 0.0
- 0.0
- 0.0
- 0.0
- 0.0
- 0.0
- 0.0
- 0.0
- 0.0
angular_velocity:
  x: -0.03195793395996094
  y: 0.12623383914184572
  z: -0.373907827331543
angular_velocity_covariance:
- 0.001292171800384882
- 0.0
- 0.0
- 0.0
- 0.0011187960354019845
- 0.0
- 0.0
- 0.0
- 0.00040479920569293926
linear_acceleration:
  x: -1.3215993642807007
  y: -0.5291185975074768
  z: 9.222464561462402
linear_acceleration_covariance:
- 0.017839372158050537
- 0.0
- 0.0
- 0.0
- 0.01616952382028103
- 0.0
- 0.0
- 0.0
- 0.06680847704410553
---
header:
  stamp:
    sec: 1775648185
    nanosec: 206585618
  frame_id: zed_imu_link
orientation:
  x: 0.0
  y: 0.0
  z: 0.0
  w: 1.0
orientation_covariance:
- 0.0
- 0.0
- 0.0
- 0.0
- 0.0
- 0.0
- 0.0
- 0.0
- 0.0
angular_velocity:
  x: -0.04048004968261719
  y: 0.09267800848388673
  z: -0.37603835626220705
angular_velocity_covariance:
- 0.0010724406018288064
- 0.0
- 0.0
- 0.0
- 0.001155099386399088
- 0.0
- 0.0
- 0.0
- 0.0003984293570823113
linear_acceleration:
  x: -1.3000515699386597
  y: -0.5530605912208557
  z: 9.208099365234375
linear_acceleration_covariance:
- 0.01725867949426174
- 0.0
- 0.0
- 0.0
- 0.016360381618142128
- 0.0
- 0.0
- 0.0
- 0.06783763319253922
---
header:
  stamp:
    sec: 1775648185
    nanosec: 220234748
  frame_id: zed_imu_link
orientation:
  x: 0.0
  y: 0.0
  z: 0.0
  w: 1.0
orientation_covariance:
- 0.0
- 0.0
- 0.0
- 0.0
- 0.0
- 0.0
- 0.0
- 0.0
- 0.0
angular_velocity:
  x: -0.025566347167968753
  y: 0.04953479763793946
  z: -0.3856257364501953
angular_velocity_covariance:
- 0.0009108399094733884
- 0.0
- 0.0
- 0.0
- 0.0010853464683822835
- 0.0
- 0.0
- 0.0
- 0.0003482976382826607
linear_acceleration:
  x: -1.2665326595306396
  y: -0.689530074596405
  z: 9.334992408752441
linear_acceleration_covariance:
- 0.014832481741905212
- 0.0
- 0.0
- 0.0
- 0.013966436497867107
- 0.0
- 0.0
- 0.0
- 0.05084759369492531
---
header:
  stamp:
    sec: 1775648185
    nanosec: 235080788
  frame_id: zed_imu_link
orientation:
  x: 0.0
  y: 0.0
  z: 0.0
  w: 1.0
orientation_covariance:
- 0.0
- 0.0
- 0.0
- 0.0
- 0.0
- 0.0
- 0.0
- 0.0
- 0.0
angular_velocity:
  x: 0.008522115722656251
  y: 0.05273059103393555
  z: -0.373375195098877
angular_velocity_covariance:
- 0.0006591654166031475
- 0.0
- 0.0
- 0.0
- 0.0011401618673545473
- 0.0
- 0.0
- 0.0
- 0.00018810353882138268
linear_acceleration:
  x: -1.3048399686813354
  y: -0.6823474764823914
  z: 9.835380554199219
linear_acceleration_covariance:
- 0.015437910333275795
- 0.0
- 0.0
- 0.0
- 0.0132560133934021
- 0.0
- 0.0
- 0.0
- 0.04462789371609688
---
header:
  stamp:
    sec: 1775648185
    nanosec: 247416188
  frame_id: zed_imu_link
orientation:
  x: 0.0
  y: 0.0
  z: 0.0
  w: 1.0
orientation_covariance:
- 0.0
- 0.0
- 0.0
- 0.0
- 0.0
- 0.0
- 0.0
- 0.0
- 0.0
angular_velocity:
  x: 0.06444850015258789
  y: 0.0745685125732422
  z: -0.3552656991882325
angular_velocity_covariance:
- 0.0005316346664579169
- 0.0
- 0.0
- 0.0
- 0.0011574328018164534
- 0.0
- 0.0
- 0.0
- 0.00019428185330989522
linear_acceleration:
  x: -1.4963760375976562
  y: -0.4692635238170624
  z: 9.610325813293457
linear_acceleration_covariance:
- 0.015393732115626335
- 0.0
- 0.0
- 0.0
- 0.013800255954265594
- 0.0
- 0.0
- 0.0
- 0.03846433758735657
---
header:
  stamp:
    sec: 1775648185
    nanosec: 248653688
  frame_id: zed_imu_link
orientation:
  x: 0.0
  y: 0.0
  z: 0.0
  w: 1.0
orientation_covariance:
- 0.0
- 0.0
- 0.0
- 0.0
- 0.0
- 0.0
- 0.0
- 0.0
- 0.0
angular_velocity:
  x: 0.06711165715472865
  y: 0.0745685125732422
  z: -0.3504720090942383
angular_velocity_covariance:
- 0.0005318441211581466
- 0.0
- 0.0
- 0.0
- 0.0011577024638490308
- 0.0
- 0.0
- 0.0
- 0.0001943558051991147
linear_acceleration:
  x: -1.3551181554794312
  y: -0.4165911078453064
  z: 9.581595420837402
linear_acceleration_covariance:
- 0.015539390034973621
- 0.0
- 0.0
- 0.0
- 0.014049554243683815
- 0.0
- 0.0
- 0.0
- 0.038735922425985336
---
header:
  stamp:
    sec: 1775648185
    nanosec: 262304798
  frame_id: zed_imu_link
orientation:
  x: 0.0
  y: 0.0
  z: 0.0
  w: 1.0
orientation_covariance:
- 0.0
- 0.0
- 0.0
- 0.0
- 0.0
- 0.0
- 0.0
- 0.0
- 0.0
angular_velocity:
  x: 0.058589545593261724
  y: 0.0884169506225586
  z: -0.339819364440918
angular_velocity_covariance:
- 0.0004124461179127351
- 0.0
- 0.0
- 0.0
- 0.0011935903915155815
- 0.0
- 0.0
- 0.0
- 0.00015752685653711444
linear_acceleration:
  x: -1.2282254695892334
  y: -0.26575639843940735
  z: 9.421183586120605
linear_acceleration_covariance:
- 0.01642245054244995
- 0.0
- 0.0
- 0.0
- 0.01479940116405487
- 0.0
- 0.0
- 0.0
- 0.03660416230559349
---
header:
  stamp:
    sec: 1775648185
    nanosec: 277152818
  frame_id: zed_imu_link
orientation:
  x: 0.0
  y: 0.0
  z: 0.0
  w: 1.0
orientation_covariance:
- 0.0
- 0.0
- 0.0
- 0.0
- 0.0
- 0.0
- 0.0
- 0.0
- 0.0
angular_velocity:
  x: 0.015446334747314454
  y: 0.10386328536987306
  z: -0.33342777764892584
angular_velocity_covariance:
- 0.00028955167733393724
- 0.0
- 0.0
- 0.0
- 0.001238568536969773
- 0.0
- 0.0
- 0.0
- 0.0001289062226028073
linear_acceleration:
  x: -1.1755530834197998
  y: -0.17477671802043915
  z: 9.332598686218262
linear_acceleration_covariance:
- 0.017093004658818245
- 0.0
- 0.0
- 0.0
- 0.014674215577542782
- 0.0
- 0.0
- 0.0
- 0.03537725284695625
---
header:
  stamp:
    sec: 1775648185
    nanosec: 289485248
  frame_id: zed_imu_link
orientation:
  x: 0.0
  y: 0.0
  z: 0.0
  w: 1.0
orientation_covariance:
- 0.0
- 0.0
- 0.0
- 0.0
- 0.0
- 0.0
- 0.0
- 0.0
- 0.0
angular_velocity:
  x: -0.022903186004638674
  y: 0.07776430596923829
